[
  {
    "name": "Haggen",
    "c_parentEntityID": "3430",
    "address": {
      "city": "Bellingham",
      "countryCode": "US",
      "extraDescription": null,
      "line1": "2814 Meridian St",
      "postalCode": "98225",
      "region": "WA",
      "sublocality": null
    },
    "geocodedCoordinate": {
      "lat": 48.7677659,
      "long": -122.4865651
    },
    "mainPhone": {
      "countryCode": "US",
      "display": "360-671-3305",
      "number": "+13606713305"
    },
    "timezone": "America/Los_Angeles"
  },
  {
    "name": "Haggen",
    "c_parentEntityID": "3436",
    "address": {
      "city": "Burlington",
      "countryCode": "US",
      "extraDescription": null,
      "line1": "757 Haggen Dr",
      "postalCode": "98233",
      "region": "WA",
      "sublocality": null
    },
    "geocodedCoordinate": {
      "lat": 48.4692798,
      "long": -122.341004
    },
    "mainPhone": {
      "countryCode": "US",
      "display": "360-814-1561",
      "number": "+13608141561"
    },
    "timezone": "America/Los_Angeles"
  },
  {
    "name": "Haggen",
    "c_parentEntityID": "3438",
    "address": {
      "city": "Auburn",
      "countryCode": "US",
      "extraDescription": null,
      "line1": "1406 Lake Tapps Pkwy SE",
      "postalCode": "98092",
      "region": "WA",
      "sublocality": null
    },
    "geocodedCoordinate": {
      "lat": 47.2429989,
      "long": -122.2117922
    },
    "mainPhone": {
      "countryCode": "US",
      "display": "253-876-1761",
      "number": "+12538761761"
    },
    "timezone": "America/Los_Angeles"
  },
  {
    "name": "Haggen",
    "c_parentEntityID": "3439",
    "address": {
      "city": "Bellingham",
      "countryCode": "US",
      "extraDescription": null,
      "line1": "1401 12th St",
      "postalCode": "98225",
      "region": "WA",
      "sublocality": null
    },
    "geocodedCoordinate": {
      "lat": 48.7190278,
      "long": -122.5036017
    },
    "mainPhone": {
      "countryCode": "US",
      "display": "360-733-9277",
      "number": "+13607339277"
    },
    "timezone": "America/Los_Angeles"
  },
  {
    "name": "Haggen",
    "c_parentEntityID": "3444",
    "address": {
      "city": "Olympia",
      "countryCode": "US",
      "extraDescription": null,
      "line1": "1313 Cooper Point Rd SW",
      "postalCode": "98502",
      "region": "WA",
      "sublocality": null
    },
    "geocodedCoordinate": {
      "lat": 47.034113,
      "long": -122.9432291
    },
    "mainPhone": {
      "countryCode": "US",
      "display": "360-754-1504",
      "number": "+13607541504"
    },
    "timezone": "America/Los_Angeles"
  },
  {
    "name": "Haggen",
    "c_parentEntityID": "3450",
    "address": {
      "city": "Mount Vernon",
      "countryCode": "US",
      "extraDescription": null,
      "line1": "2601 E Division St",
      "postalCode": "98274",
      "region": "WA",
      "sublocality": null
    },
    "geocodedCoordinate": {
      "lat": 48.4222267,
      "long": -122.3099363
    },
    "mainPhone": {
      "countryCode": "US",
      "display": "360-848-6930",
      "number": "+13608486930"
    },
    "timezone": "America/Los_Angeles"
  },
  {
    "name": "Haggen",
    "c_parentEntityID": "3460",
    "address": {
      "city": "Bellingham",
      "countryCode": "US",
      "extraDescription": null,
      "line1": "2900 Woburn St",
      "postalCode": "98226",
      "region": "WA",
      "sublocality": null
    },
    "geocodedCoordinate": {
      "lat": 48.7691442,
      "long": -122.4467819
    },
    "mainPhone": {
      "countryCode": "US",
      "display": "360-715-5321",
      "number": "+13607155321"
    },
    "timezone": "America/Los_Angeles"
  },
  {
    "name": "Haggen",
    "c_parentEntityID": "3480",
    "address": {
      "city": "Stanwood",
      "countryCode": "US",
      "extraDescription": null,
      "line1": "26603 72nd Avenue NW",
      "postalCode": "98292",
      "region": "WA",
      "sublocality": null
    },
    "geocodedCoordinate": {
      "lat": 48.2377706,
      "long": -122.3311145
    },
    "mainPhone": {
      "countryCode": "US",
      "display": "360-629-5520",
      "number": "+13606295520"
    },
    "timezone": "America/Los_Angeles"
  },
  {
    "name": "Haggen",
    "c_parentEntityID": "3482",
    "address": {
      "city": "Snohomish",
      "countryCode": "US",
      "extraDescription": null,
      "line1": "1301 Avenue D",
      "postalCode": "98290",
      "region": "WA",
      "sublocality": null
    },
    "geocodedCoordinate": {
      "lat": 47.9277274,
      "long": -122.0985854
    },
    "mainPhone": {
      "countryCode": "US",
      "display": "360-568-5154",
      "number": "+13605685154"
    },
    "timezone": "America/Los_Angeles"
  },
  {
    "name": "Haggen",
    "c_parentEntityID": "3493",
    "address": {
      "city": "Ferndale",
      "countryCode": "US",
      "extraDescription": null,
      "line1": "1815 Main St",
      "postalCode": "98248",
      "region": "WA",
      "sublocality": null
    },
    "geocodedCoordinate": {
      "lat": 48.8429963,
      "long": -122.5828033
    },
    "mainPhone": {
      "countryCode": "US",
      "display": "360-380-7210",
      "number": "+13603807210"
    },
    "timezone": "America/Los_Angeles"
  },
  {
    "name": "Haggen",
    "c_parentEntityID": "3498",
    "address": {
      "city": "Woodinville",
      "countryCode": "US",
      "extraDescription": null,
      "line1": "17641 Garden Way NE",
      "postalCode": "98072",
      "region": "WA",
      "sublocality": null
    },
    "geocodedCoordinate": {
      "lat": 47.7557478,
      "long": -122.1594753
    },
    "mainPhone": {
      "countryCode": "US",
      "display": "425-398-6710",
      "number": "+14253986710"
    },
    "timezone": "America/Los_Angeles"
  },
  {
    "name": "Haggen",
    "c_parentEntityID": "3600",
    "address": {
      "city": "Lake Stevens",
      "countryCode": "US",
      "extraDescription": null,
      "line1": "8915 Market Place NE",
      "postalCode": "98258",
      "region": "WA",
      "sublocality": null
    },
    "geocodedCoordinate": {
      "lat": 47.9990157,
      "long": -122.1128569
    },
    "mainPhone": {
      "countryCode": "US",
      "display": "425-377-7110",
      "number": "+14253777110"
    },
    "timezone": "America/Los_Angeles"
  },
  {
    "name": "Haggen",
    "c_parentEntityID": "3604",
    "address": {
      "city": "Marysville",
      "countryCode": "US",
      "extraDescription": null,
      "line1": "3711 88th Street NE",
      "postalCode": "98270",
      "region": "WA",
      "sublocality": null
    },
    "geocodedCoordinate": {
      "lat": 48.0768906,
      "long": -122.1826125
    },
    "mainPhone": {
      "countryCode": "US",
      "display": "360-530-7761",
      "number": "+13605307761"
    },
    "timezone": "America/Los_Angeles"
  }
]
